[
	{
		"name": "Агропарк-М",
		"address": "4 пер. монтажников 5",
		"lat": 53.874443,
		"lon": 27.413769
	},
	{
		"name": "Акватермекс",
		"address": "г. Минск, ул. Красная,7.",
		"lat": 53.913429,
		"lon": 27.570247
	},
	{
		"name": "Акватехнологии",
		"address": "Долгобродская улица, 16Ак16",
		"lat": 53.895057,
		"lon": 27.599246
	},
	{
		"name": "АКПОБЕЛ",
		"address": "в направлении фаниполя, вьезд в д слободку",
		"lat": 53.790827,
		"lon": 27.364938
	},
	{
		"name": "АлвелЧудМилл",
		"address": "Домбровская улица, 15",
		"lat": 53.915696,
		"lon": 27.453713
	},
	{
		"name": "Алтерн-Техно",
		"address": "пр-т Партизанский,95,оф.1А",
		"lat": 53.873861,
		"lon": 27.636760
	},
	{
		"name": "Альфасад (Альфасток)",
		"address": "Рогачёвская ул., 14/14",
		"lat": 53.945420,
		"lon": 27.732618
	},
	{
		"name": "Артека (\"БизнесАкила-Плюс\") Континент Экспорт",
		"address": "Западная 19",
		"lat": 53.900220,
		"lon": 27.529860
	},
	{
		"name": "АСБИС до16:30(пт?)",
		"address": "Менковский тракт, 10",
		"lat": 53.846447,
		"lon": 27.414321
	},
	{
		"name": "Аш два о",
		"address": "ул.Бабушкина 82а",
		"lat": 53.801700,
		"lon": 27.587916
	},
	{
		"name": "Айронтел",
		"address": "Садовый проезд, 7, агрогородок Ратомка",
		"lat": 53.945369,
		"lon": 27.352150
	},
	{
		"name": "Айсхолбел",
		"address": "Минск, Партизанский пр., дом 168, корпус А, помещение 5",
		"lat": 53.855229,
		"lon": 27.680445
	},
	{
		"name": "АйТи Дистрибуция",
		"address": "Боровлянский сельсовет, 103/3",
		"lat": 53.974050,
		"lon": 27.603301
	},
	{
		"name": "Аквабрег",
		"address": "Центральная улица, 1А, Озерцо",
		"lat": 53.838726,
		"lon": 27.372598
	},
	{
		"name": "Априла-Про",
		"address": "деревня Боровая, 95",
		"lat": 53.961662,
		"lon": 27.648303
	},
	{
		"name": "БАЙПРИНТ СЕРВИС",
		"address": "Пушкина 68/13",
		"lat": 53.919922,
		"lon": 27.502886
	},
	{
		"name": "Бризбел",
		"address": "горецкого 14 (офис 401)",
		"lat": 53.883330,
		"lon": 227.455246
	},
	{
		"name": "Банк Дабрабыт",
		"address": "Коммунистическая 49",
		"lat": 53.914098,
		"lon": 27.552724
	},
	{
		"name": "Банк Решение",
		"address": "Сторожовская 8",
		"lat": 53.914570,
		"lon": 27.553624
	},
	{
		"name": "БЕЛЕВРОТУЛС/ИП Ракецкая Т.В.",
		"address": "Промышленный пер., 9/6",
		"lat": 53.838714,
		"lon": 27.682151
	},
	{
		"name": "Белкопирснаб-2010",
		"address": "плеханова 45",
		"lat": 53.867296,
		"lon": 27.620472
	},
	{
		"name": "БЕЛРОССПЛАВ",
		"address": "Передовая, 15",
		"lat": 53.899702,
		"lon": 27.622342
	},
	{
		"name": "БелЭВМ",
		"address": "Великий Камень, ул. Сапфировая, 20",
		"lat": 53.903175,
		"lon": 27.974894
	},
	{
		"name": "БизнесПрайд",
		"address": "Логойский тракт, 20, корпус 5",
		"lat": 53.946519,
		"lon": 27.616853
	},
	{
		"name": "ВанТехТрэйд",
		"address": "г.Минск, пер. 1-й Измайловский, дом 51 подъезд 1,ком. 10",
		"lat": 53.946880,
		"lon": 27.592068
	},
	{
		"name": "Велотойс",
		"address": "Папернянский сельсовет, 15/8",
		"lat": 53.994800,
		"lon": 27.572995
	},
	{
		"name": "ВиальТранс (Ферст дистрибуция )",
		"address": "Даумана 13Б",
		"lat": 53.919373,
		"lon": 27.550458
	},
	{
		"name": "ВестЛинк",
		"address": "Мельникайте 9 пом 5Н комн 1",
		"lat": 53.907498,
		"lon": 27.541969
	},
	{
		"name": "ВИКО-МАРКЕТ",
		"address": "ул. Крупской, д. 17",
		"lat": 53.858415,
		"lon": 27.626384
	},
	{
		"name": "Гринтерра",
		"address": "Карвата, 89-2",
		"lat": 53.907742,
		"lon": 27.682484
	},
	{
		"name": "ГРУППА КОМПАНИЙ ФОРТЕ-М",
		"address": " аг. Колодищи, ул. Марины Молокович, д. 23Б-2.",
		"lat": 53.934785,
		"lon": 27.758580
	},
	{
		"name": "ДжетСервис",
		"address": "улица Кнорина, 6Б",
		"lat": 53.931191,
		"lon": 27.613242
	},
	{
		"name": "Дг-групп",
		"address": "ул. Октябрьская 25",
		"lat": 53.889884,
		"lon": 27.575315
	},
	{
		"name": "Дигиталь",
		"address": "заезд после проспект Независимости, 220к25",
		"lat": 53.954993,
		"lon": 27.736623
	},
	{
		"name": "Домина",
		"address": "склад ул. Аннаева, 67",
		"lat": 53.908113,
		"lon": 27.638044
	},
	{
		"name": "До дома",
		"address": "Железнодорожная 35к1",
		"lat": 53.870947,
		"lon": 27.501740
	},
	{
		"name": "Домотехника",
		"address": "Щомыслица, 28А",
		"lat": 53.822475,
		"lon": 27.436712
	},
	{
		"name": "Индустрия Стиля",
		"address": "Меньковский тракт 21к4",
		"lat": 53.844244,
		"lon": 27.413995
	},
	{
		"name": "Интерпрайд Климат",
		"address": "г.Минск, ул.Тимирязева, д. 67, пом. 9",
		"lat": 53.925269,
		"lon": 27.508175
	},
	{
		"name": "Компьютеры Айвен",
		"address": "Новодворский сельсовет, 33/2",
		"lat": 53.863895,
		"lon": 27.699839
	},
	{
		"name": "Компьютеры и периферия(КИП)",
		"address": "улица Основателей, 25Ак1",
		"lat": 53.941354,
		"lon": 27.735183
	},
	{
		"name": "Корпоративный стандарт (CDL)",
		"address": "улица 40 лет Победы, 27/1",
		"lat": 53.987284,
		"lon": 27.678204
	},
	{
		"name": "Макситулс",
		"address": "Социалистическая 28к2",
		"lat": 53.860752,
		"lon": 27.666781
	},
	{
		"name": "МанэкиТрейд",
		"address": "ТЛЦ \"Глобус Парк\", Минский р-н, Щомыслицкий с/с, 28А",
		"lat": 53.824220,
		"lon": 27.437817
	},
	{
		"name": "Мастер Гарден",
		"address": "4-й переулок Монтажников, 5к2",
		"lat": 53.875487,
		"lon": 27.413607
	},
	{
		"name": "Маунфелд",
		"address": "Щомыслицкий сельсовет, 92/1",
		"lat": 53.876609,
		"lon": 27.415813
	},
	{
		"name": "Мератех ООО ( БВКомпьютерс был)",
		"address": "Липковская улица, 9/2",
		"lat": 53.919712,
		"lon": 27.703007
	},
	{
		"name": "Микродом-Сервис",
		"address": "Первомайская 24/2",
		"lat": 53.901175,
		"lon": 27.578135
	},
	{
		"name": "Мир устройств",
		"address": "Боровлянский сельсовет, 81А",
		"lat": 53.974658,
		"lon": 27.608800
	},
	{
		"name": "Мобильный город",
		"address": "улица Бабушкина, 21Ак1",
		"lat": 53.811355,
		"lon": 27.591642
	},
	{
		"name": "Мэйд импорт",
		"address": "Короля, 2к4",
		"lat": 53.901795,
		"lon": 27.546687
	},
	{
		"name": "Надежная Техника (Nix) /НИКС",
		"address": "улица Скрыганова, 6А",
		"lat": 53.910796,
		"lon": 27.517370
	},
	{
		"name": "Надежные инструменты",
		"address": "притыцкого 62к3",
		"lat": 53.908604,
		"lon": 27.459588
	},
	{
		"name": "Неолинк",
		"address": "Каменногорская улица, 45",
		"lat": 53.934241,
		"lon": 27.426392
	},
	{
		"name": "Нереида",
		"address": "Ждановичский сельсовет, 65/2",
		"lat": 53.874915,
		"lon": 27.396302
	},
	{
		"name": "НИКС (НТ, БН) счет нужен",
		"address": "улица Скрыганова, 6А",
		"lat": 53.910796,
		"lon": 27.517370
	},
	{
		"name": "Патио",
		"address": "Центральная улица, 45А, Дубовляны",
		"lat": 53.993281,
		"lon": 27.543348
	},
	{
		"name": "ЕТК компани",
		"address": "Липковский переулок, 32",
		"lat": 53.920648,
		"lon": 27.708617
	},
	{
		"name": "Жемчужина кухни",
		"address": "платонова 34 (29 6970603 галина)",
		"lat": 53.912176,
		"lon": 27.599183
	},
	{
		"name": "Пилакос",
		"address": "Боровлянский сельсовет, 81к1",
		"lat": 53.978644,
		"lon": 27.603554
	},
	{
		"name": "Ирсен Групп",
		"address": "Аннаева 13а",
		"lat": 53.903461,
		"lon": 27.625378
	},
	{
		"name": "Кредитное Решение",
		"address": "ул.Инженерная, 14-4 второй шлагбаум.",
		"lat": 53.842098,
		"lon": 27.690299
	},
	{
		"name": "МБ техника",
		"address": "Железнодорожная 31к1, офис 407                                                                        ",
		"lat": 53.873702,
		"lon": 27.502264
	},
	{
		"name": "Микроинформ ",
		"address": "пр.Машерова 11 литер Г 2/кп пом.2",
		"lat": 53.915405,
		"lon": 27.569037
	},
	{
		"name": "МИОТЭК ",
		"address": " ул. Притыцкого, 8",
		"lat": 53.911174,
		"lon": 27.501446
	},
	{
		"name": "Н-ТиВи(нтиви)",
		"address": "С.Ковалевской, 62",
		"info": {
			"выписка": "53.866205, 27.510613",
			"заезд": "53.865682,  27.506771",
			"склад": "53.865265, 27.511968"
		},
		"lat": 53.866205,
		"lon": 27.510613
	},
	{
		"name": "Новотренд ",
		"address": "ул. Тростенецкая, 11, пом. 308А",
		"lat": 53.881117,
		"lon":  27.583669
	},
	{
		"name": "Новый Альбион",
		"address": "п. Тарасово, пер. Олимпийский, 33/4",
		"lat": 53.913523,
		"lon":  27.375449
	},
	{
		"name": "Техномаркет",
		"address": " Боровляны, ул. 40 Лет Победы, 19",
		"lat": 53.990528,
		"lon": 27.682151
	},
	{
		"name": "Оптконд",
		"address": "Партизанский 168/28",
		"lat": 53.853035,
		"lon": 27.681163
	},
	{
		"name": "ОптусБай",
		"address": "ул. Матусевича 33/2-3",
		"lat": 53.915114,
		"lon": 27.460106
	},
	{
		"name": "Патио плюс (патио+)",
		"address": " Кошевого, 5 будет виден коричневый козырек, там спуск в подвальное помещение",
		"lat": 53.886875,
		"lon": 27.609855
	},
	{
		"name": "Профдефолт",
		"address": "ул.Широкая,4  до16-00  375 29 606 22 42",
		"lat": 53.950048,
		"lon": 27.613700
	},
	{
		"name": "Свет телеком трейд (стт)",
		"address": "Каменогорская 45",
		"lat": 53.933677,
		"lon": 27.427632
	},
	{
		"name": "Сити парк",
		"address": "Ждановичи , белорусская 27",
		"lat": 53.936932,
		"lon": 27.412522
	},
	{
		"name": "Стратегия комфорта",
		"address": "Склад и выписка документов: г. Минск, ул. Кнорина, 50А",
		"lat": 53.943334,
		"lon": 27.622548
	},
	{
		"name": "Стройинструмент-М",
		"address": "Минский р-н, д.Боровая 3, 3-й этаж",
		"lat": 53.966752,
		"lon": 27.650450
	},
	{
		"name": "Термостудия",
		"address": "выписка стариновская 2   ( забирать  возле альфасада )",
		"lat": 53.945565,
		"lon": 27.695536
	},
	{
		"name": "Техно бай плюс (Технобайплюс)",
		"address": "Корш саблина 74",
		"lat": 53.939359,
		"lon": 27.580552
	},
	{
		"name": "Ультрабай",
		"address": "Игнатенко 7",
		"lat": 53.917655,
		"lon": 27.524174
	},
	{
		"name": "Экономстрой",
		"address": "Гамарника 30 (макита)",
		"lat": 53.957201,
		"lon": 27.605588
	},
	{
		"name": "Эльпорто (эль порто)",
		"address": "3-й переулок Монтажников, 2",
		"lat": 53.876823,
		"lon": 27.416196
	},
	{
		"name": "ПринтЛюкс ///доверка + счет заранее",
		"address": "улица 40 лет Победы, 14А",
		"lat": 53.991786,
		"lon": 27.676288
	},
	{
		"name": "ПроЛевелГрупп",
		"address": "Брикета 2, г. Минск",
		"lat": 53.908989,
		"lon": 27.415406
	},
	{
		"name": "ПронтоТелеком",
		"address": "улица Ольшевского, 10",
		"lat": 53.913981,
		"lon": 27.507156
	},
	{
		"name": "Ресамент",
		"address": "ждановичи, Звездная 15",
		"lat": 53.936022,
		"lon": 27.420197
	},
	{
		"name": "Рич-маркет",
		"address": "Домбровская улица, 15",
		"lat": 53.915903,
		"lon": 27.454863
	},
	{
		"name": "Русклимат-М",
		"address": "д. Валерьяново, ул.Лесная, 1А",
		"lat": 53.964526,
		"lon": 27.674703
	},
	{
		"name": "Сантехпром",
		"address": "Минский район, а/г Озерцо, ул. Центральная, 1Б",
		"lat": 53.839304,
		"lon": 27.378512
	},
	{
		"name": "Сателлит",
		"address": "Радиальная улица, 40к5",
		"lat": 53.892787,
		"lon": 27.647261
	},
	{
		"name": "Свентуховская(Огниво)",
		"address": "Тимирязева, 121к4",
		"lat": 53.932224,
		"lon": 27.460352
	},
	{
		"name": "СВКомп + дов разовая",
		"address": "Веры хоружей 19",
		"lat": 53.920448,
		"lon": 27.569917
	},
	{
		"name": "СИБ инструмент",
		"address": "Липковская улица, 9/1",
		"lat": 53.919359,
		"lon": 27.703290
	},
	{
		"name": "СКАНЛИНК",
		"address": "4 пер. монтажников 5",
		"lat": 53.874443,
		"lon": 27.413769
	},
	{
		"name": "Скансон",
		"address": "Коржа 11 Б",
		"lat": 53.895472,
		"lon": 27.519359
	},
	{
		"name": "Сота",
		"address": "Шафарнянская улица, 11",
		"lat": 53.946735,
		"lon": 27.682091
	},
	{
		"name": "Сэйлз Модерн групп",
		"address": "Боровлянский сс ревни Малиновка, 32/2",
		"lat": 53.996896,
		"lon": 27.636606
	},
	{
		"name": "Тапанар",
		"address": "промышленная 11",
		"lat": 53.850656,
		"lon": 27.683984
	},
	{
		"name": "ТД Комплект",
		"address": "Брикета 31",
		"lat": 53.902884,
		"lon": 27.409802
	},
	{
		"name": "Технопрофиль",
		"address": "около Бирюзова, 8",
		"lat": 53.914816,
		"lon": 27.510890
	},
	{
		"name": "Тистор",
		"address": "2-й Велосипедный 30 , офис 411",
		"lat": 53.872459,
		"lon": 27.591125
	},
	{
		"name": "ТМ МЕНЕДЖМЕНТ",
		"address": "3-й Загородный переулок, 4А",
		"lat": 53.898315,
		"lon": 27.515631
	},
	{
		"name": "Триовист (21 век)",
		"address": "Дзержинского 131",
		"lat": 53.844086,
		"lon": 27.474732
	},
	{
		"name": "Успех про",
		"address": "Ждановичский сельсовет, 65/2",
		"lat": 53.874949,
		"lon": 27.396258
	},
	{
		"name": "Ферст дистрибьюция",
		"address": "Брилевский тупик 5.",
		"lat": 53.871536,
		"lon": 27.523482
	},
	{
		"name": "Флаймэн",
		"address": "Промышленный пер., 12А/1",
		"lat": 53.838539,
		"lon": 27.685062
	},
	{
		"name": "Фортрейдмакс",
		"address": "пер. Козлова, 7",
		"lat": 53.897028,
		"lon": 27.600377
	},
	{
		"name": "ЦСВ(ТСК - НАСОСЫ)",
		"address": "Щомыслицкий сельсовет, 72А",
		"lat": 53.832185,
		"lon": 27.464217
	},
	{
		"name": "Чистый берег + дов",
		"address": "Бабушкина 55а",
		"lat": 53.799714,
		"lon": 27.595654
	},
	{
		"name": "Эландбел",
		"address": "д. Хатежино, ул. Центральная 14Д",
		"lat": 53.960558,
		"lon": 27.546390
	},
	{
		"name": "Электросервис",
		"address": "улица Монтажников, 5Б",
		"lat": 53.870018,
		"lon": 27.415760
	},
	{
		"name": "ЭлкоТелеком",
		"address": "Папернянский сельсовет, 50",
		"lat": 53.990169,
		"lon": 27.542102
	},
	{
		"name": "Эс Пи Ай Трейд",
		"address": "Боровлянский сельсовет, 35А/1",
		"lat": 54.000670,
		"lon": 27.628120
	},
	{
		"name": "RSS",
		"address": "Веры хоружей 19",
		"lat": 53.920403,
		"lon": 27.570752
	}
]


